Time,header.seq,header.stamp.secs,header.stamp.nsecs,header.frame_id,status.status,status.service,latitude,longitude,altitude,position_covariance_0,position_covariance_1,position_covariance_2,position_covariance_3,position_covariance_4,position_covariance_5,position_covariance_6,position_covariance_7,position_covariance_8,position_covariance_type,easting,northing,translation_easting,translation_northing,rotation_angle_degrees,transformed_easting,transformed_northing,error
1709121591.911487,1166,1709121591,566830292,,2,0,63.23967013096054,9.50187033102811,377.2397109775246,60.0,0.0,0.0,0.0,130.0,0.0,0.0,0.0,0.0,0,224043.6390287447,7024128.163439731,,,,,,
1709121591.912211,1167,1709121591,670852951,,2,0,63.239668238978346,9.50186933141478,377.2481179250153,53.0,0.0,0.0,0.0,114.0,0.0,0.0,0.0,0.0,0,224043.57088061117,7024127.957515962,-0.0681481335486751,-0.20592376869171858,5.017966770992643e-07,224043.50936326728,7024127.959478138,0.061548629000031635
1709121591.9211822,1168,1709121591,771851431,,2,0,63.23966830616577,9.501870147496271,377.2514505916083,53.0,0.0,0.0,0.0,113.0,0.0,0.0,0.0,0.0,0,224043.6124071404,7024127.96146757,0.04152652923949063,0.003951607272028923,-3.373603760792321e-07,224043.6537655523,7024127.96014839,0.04137944499947108
1709121591.9350996,1169,1709121591,873130268,,2,0,63.2396671811742,9.50186995630876,377.2538215881154,55.0,0.0,0.0,0.0,119.0,0.0,0.0,0.0,0.0,0,224043.5920851326,7024127.83728714,-0.02032200779649429,-0.12418042961508036,1.3332189041648235e-07,224043.57574064744,7024127.837808468,0.016352797267681435
1709121591.9762473,1170,1709121591,974026027,,2,0,63.23966730556673,9.501871486480844,377.2533957422794,56.0,0.0,0.0,0.0,121.0,0.0,0.0,0.0,0.0,0,224043.6699332173,7024127.844520326,0.07784808467840776,0.0072331856936216354,-6.324810897240241e-07,224043.7474717038,7024127.842047135,0.07757791929051291
1709121592.0747876,1171,1709121592,74049324,,2,0,63.23966778420992,9.50187232974206,377.2485901784541,58.0,0.0,0.0,0.0,129.0,0.0,0.0,0.0,0.0,0,224043.7167508371,7024127.894073888,0.04681761981919408,0.049553561955690384,-3.686233469579747e-07,224043.76194190592,7024127.89263246,0.045214051065541175
1709121592.1698835,1172,1709121592,167189754,,2,0,63.23966722641916,9.501872971310387,377.2525242064981,57.0,0.0,0.0,0.0,126.0,0.0,0.0,0.0,0.0,0,224043.743565872,7024127.829332355,0.02681503488565795,-0.06474153231829405,-2.3533502258032968e-07,224043.77241657113,7024127.828412125,0.028865371377696306
1709121592.27644,1173,1709121592,275880362,,2,0,63.239668218805605,9.50187280997366,377.2567044204157,56.0,0.0,0.0,0.0,124.0,0.0,0.0,0.0,0.0,0,224043.74496037103,7024127.940296262,0.0013944990350864828,0.1109639061614871,1.747767441884207e-08,224043.74281771024,7024127.940364605,0.0021437504613745183
1709121592.3768814,1174,1709121592,375817705,,2,0,63.23966841475568,9.50187248088512,377.24825717578005,63.0,0.0,0.0,0.0,147.0,0.0,0.0,0.0,0.0,0,224043.7303446836,7024127.963486303,-0.014615687425248325,0.023190041072666645,1.2512631997196877e-07,224043.71500492757,7024127.963975584,0.015347557186658627
1709121592.4695942,1175,1709121592,467776163,,2,0,63.23966870863949,9.5018720687885,377.2437988727033,59.0,0.0,0.0,0.0,137.0,0.0,0.0,0.0,0.0,0,224043.712505642,7024127.997915693,-0.01783904159674421,0.034429389983415604,1.5431376709784672e-07,224043.69358767534,7024127.998519106,0.01892758754223097
1709121592.5760891,1176,1709121592,575017660,,2,0,63.2396691821185,9.501873577419516,377.2342545214647,61.0,0.0,0.0,0.0,141.0,0.0,0.0,0.0,0.0,0,224043.7926083188,7024128.044030446,0.08010267678764649,0.04611475300043821,-6.407472312730533e-07,224043.87116018776,7024128.041524931,0.07859181714636417
1709121592.6714425,1177,1709121592,670827350,,2,0,63.23966757492514,9.50187079279901,377.2384584914698,60.0,0.0,0.0,0.0,140.0,0.0,0.0,0.0,0.0,0,224043.6377528121,7024127.877437038,-0.15485550669836812,-0.16659340728074312,1.2185719810986484e-06,224043.48836300184,7024127.882202021,0.1494657835909033
1709121592.777198,1178,1709121592,776562133,,2,0,63.2396679105872,9.501870619890347,377.2449346531977,56.0,0.0,0.0,0.0,131.0,0.0,0.0,0.0,0.0,0,224043.6322958376,7024127.915478715,-0.005456974497064948,0.0380416763946414,5.435481398308184e-08,224043.6256322549,7024127.915691258,0.006666971511574351
1709121592.8688807,1179,1709121592,868090153,,2,0,63.23966720348161,9.501871370413095,377.2460677188511,62.0,0.0,0.0,0.0,146.0,0.0,0.0,0.0,0.0,0,224043.66314342065,7024127.83367689,0.03084758305340074,-0.0818018252030015,-2.726292507304606e-07,224043.69656617442,7024127.832610828,0.03343975114895103
1709121592.9714243,1180,1709121592,970974009,,2,0,63.23966779843387,9.50187226186,377.24855215179247,61.0,0.0,0.0,0.0,141.0,0.0,0.0,0.0,0.0,0,224043.71348585107,7024127.895946677,0.050342430418822914,0.062269787304103374,-3.940408532798756e-07,224043.7617929576,7024127.894405859,0.04833167349749679
1709121593.096429,1181,1709121593,95138539,,2,0,63.23966785455329,9.50187299183415,377.2518004291493,57.0,0.0,0.0,0.0,132.0,0.0,0.0,0.0,0.0,0,224043.750592787,7024127.899039229,0.03710693592438474,0.003092552535235882,-3.0156968477967894e-07,224043.78756346882,7024127.897860001,0.036989483572923525
1709121593.1718087,1182,1709121593,171293150,,2,0,63.23966663871368,9.501873154773865,377.2466364036927,56.0,0.0,0.0,0.0,129.0,0.0,0.0,0.0,0.0,0,224043.74714461397,7024127.763239378,-0.0034481730253901333,-0.1357998512685299,-7.198082130344119e-09,224043.7480270568,7024127.763211232,0.0008828916025962146
1709121593.2746189,1183,1709121593,273230398,,2,0,63.239666823301896,9.501872407975988,377.2400050821348,56.0,0.0,0.0,0.0,129.0,0.0,0.0,0.0,0.0,0,224043.71149358747,7024127.786965542,-0.03565102649736218,0.023726163432002068,2.9667646117559343e-07,224043.67512278695,7024127.788125636,0.036389297183820585
1709121593.377661,1184,1709121593,374576052,,2,0,63.239666258231495,9.501871959002878,377.2484599804234,59.0,0.0,0.0,0.0,138.0,0.0,0.0,0.0,0.0,0,224043.6836040356,7024127.726110851,-0.027889551856787875,-0.06085469014942646,2.1144677475604112e-07,224043.65768189653,7024127.726937672,0.02593532200330654
1709121593.4685128,1185,1709121593,467905573,,2,0,63.23966785526865,9.501872161822044,377.2501944288526,59.0,0.0,0.0,0.0,137.0,0.0,0.0,0.0,0.0,0,224043.7090168204,7024127.9026926365,0.02541278477292508,0.17658178508281708,-1.611852837868355e-07,224043.7287771942,7024127.902062354,0.019770423094225657
1709121593.571204,1186,1709121593,570345006,,2,0,63.23966674946911,9.501871431399191,377.2417418901924,61.0,0.0,0.0,0.0,141.0,0.0,0.0,0.0,0.0,0,224043.6618629343,7024127.782966604,-0.04715388608747162,-0.1197260320186615,3.531247045884811e-07,224043.61857190813,7024127.784347428,0.04331304215624639
1709121593.673217,1187,1709121593,671842407,,2,0,63.23966641277288,9.501870204333796,377.2434790788753,54.0,0.0,0.0,0.0,126.0,0.0,0.0,0.0,0.0,0,224043.59717269283,7024127.750838114,-0.06469024147372693,-0.03212849050760269,5.187910971926613e-07,224043.53357193567,7024127.752866742,0.0636331017931858
1709121593.7617505,1188,1709121593,761026515,,2,0,63.23966541779767,9.501871227046728,377.2454301073309,54.0,0.0,0.0,0.0,124.0,0.0,0.0,0.0,0.0,0,224043.63890757956,7024127.635877586,0.041734886734047905,-0.11496052797883749,-3.6996507901676523e-07,224043.6842631363,7024127.634430912,0.0453786226268999
1709121593.8636966,1189,1709121593,862757296,,2,0,63.23966674777885,9.501871361247508,377.2411803104892,56.0,0.0,0.0,0.0,128.0,0.0,0.0,0.0,0.0,0,224043.65833226108,7024127.783080855,0.019424681522650644,0.1472032694146037,-1.2002590210613562e-07,224043.67304673506,7024127.782611518,0.014721957131491877
1709121593.9767897,1190,1709121593,975763816,,2,0,63.23966559787228,9.501871375936176,377.2459758194271,57.0,0.0,0.0,0.0,130.0,0.0,0.0,0.0,0.0,0,224043.64808651333,7024127.655245515,-0.010245747747831047,-0.12783534079790115,5.026345206715632e-08,224043.6419245078,7024127.65544206,0.0061651392766065094
1709121594.0653727,1191,1709121594,64573550,,2,0,63.23966484305896,9.50187212199282,377.2460542167751,58.0,0.0,0.0,0.0,132.0,0.0,0.0,0.0,0.0,0,224043.67825474328,7024127.568161867,0.03016822994686663,-0.08708364795893431,-2.6846623768506106e-07,224043.71116713475,7024127.567112084,0.032929129305834214
1709121594.1648445,1192,1709121594,164183815,,2,0,63.23966593020292,9.501871724078356,377.2406603943495,56.0,0.0,0.0,0.0,126.0,0.0,0.0,0.0,0.0,0,224043.6687018645,7024127.690673446,-0.009552878793329,0.12251157965511084,1.0968599895022635e-07,224043.65525500235,7024127.691102351,0.01345370063295146
1709121594.269888,1193,1709121594,269176411,,2,0,63.2396663592004,9.501870973639086,377.2439662884124,56.0,0.0,0.0,0.0,125.0,0.0,0.0,0.0,0.0,0,224043.635202522,7024127.741572874,-0.033499342476716265,0.05089942738413811,2.86205732891176e-07,224043.60011537196,7024127.7426920235,0.035104993881646174
1709121594.366614,1194,1709121594,365750018,,2,0,63.23966726274387,9.501870653756928,377.24173214160015,62.0,0.0,0.0,0.0,140.0,0.0,0.0,0.0,0.0,0,224043.62780559997,7024127.843347652,-0.007396922039333731,0.10177477821707726,8.672796525388549e-08,224043.61717325824,7024127.843686785,0.010637748898324242
1709121594.471496,1195,1709121594,470837782,,2,0,63.239668003239046,9.501870466143783,377.2418781804574,56.0,0.0,0.0,0.0,126.0,0.0,0.0,0.0,0.0,0,224043.625478112,7024127.926435755,-0.002327487978618592,0.08308810275048018,4.0561729974797345e-08,224043.62050548085,7024127.9265943635,0.00497516002187134
1709121594.5697265,1196,1709121594,568408558,,2,0,63.23966844660335,9.501871483927202,377.247242557949,53.0,0.0,0.0,0.0,119.0,0.0,0.0,0.0,0.0,0,224043.6807022097,7024127.971317829,0.05522409771219827,0.04488207399845123,-4.38339441188873e-07,224043.73444006502,7024127.96960379,0.05376518410774714
1709121594.6666913,1197,1709121594,666071143,,2,0,63.23966781934615,9.501872378623066,377.2396291710068,48.0,0.0,0.0,0.0,107.0,0.0,0.0,0.0,0.0,0,224043.71953527984,7024127.897767584,0.038833070138935,-0.07355024479329586,-3.355559385909146e-07,224043.76067247833,7024127.896455459,0.04115811912225938
1709121594.770259,1198,1709121594,769731108,,2,0,63.23966571397914,9.501872418349716,377.240863833668,51.0,0.0,0.0,0.0,115.0,0.0,0.0,0.0,0.0,0,224043.701419244,7024127.66365826,-0.01811603584792465,-0.2341093234717846,8.67740652665816e-08,224043.69078125045,7024127.663997573,0.010643403574159702
1709121594.8625872,1199,1709121594,860776719,,2,0,63.23966625290562,9.501873547650844,377.2387308659805,55.0,0.0,0.0,0.0,123.0,0.0,0.0,0.0,0.0,0,224043.7631428939,7024127.718678566,0.061723649909254164,0.05502030532807112,-4.886673252713081e-07,224043.82305065164,7024127.71676773,0.05993822427468326
1709121594.9664009,1200,1709121594,965687168,,2,0,63.2396663876814,9.501873265833405,377.2439235148071,54.0,0.0,0.0,0.0,120.0,0.0,0.0,0.0,0.0,0,224043.75031122545,7024127.734867669,-0.012831668456783518,0.01618910301476717,1.0876925671254867e-07,224043.73697675025,7024127.735292989,0.013341256535610977
1709121595.0718691,1201,1709121595,71240317,,2,0,63.239667293341085,9.50187300379162,377.24269639221313,51.0,0.0,0.0,0.0,115.0,0.0,0.0,0.0,0.0,0,224043.74583225587,7024127.836628539,-0.004478969582123682,0.10176086984574795,6.294683885244012e-08,224043.7381153413,7024127.83687468,0.007720839079358837
1709121595.165676,1202,1709121595,164201768,,2,0,63.23966874157739,9.501875225108789,377.2421816504561,51.0,0.0,0.0,0.0,114.0,0.0,0.0,0.0,0.0,0,224043.87094876776,7024127.987984912,0.1251165118883364,0.15135637298226357,-9.801979672374728e-07,224043.99111531203,7024127.984152041,0.12022765595964867
1709121595.2723775,1203,1709121595,271694788,,2,0,63.23966819684814,9.501874628012375,377.243173968856,51.0,0.0,0.0,0.0,114.0,0.0,0.0,0.0,0.0,0,224043.8358326453,7024127.930028233,-0.03511612245347351,-0.05795667879283428,2.710871740418952e-07,224043.8025989408,7024127.931088266,0.033250605798253126
1709121595.3658855,1204,1709121595,364770897,,2,0,63.23966790995584,9.501875397956091,377.2322908693319,51.0,0.0,0.0,0.0,114.0,0.0,0.0,0.0,0.0,0,224043.87166624883,7024127.894834866,0.03583360352786258,-0.035193366929888725,-3.011446949585661e-07,224043.9085848296,7024127.893657299,0.03693735602163818
1709121595.466016,1205,1709121595,465046870,,2,0,63.2396679596265,9.501874150997343,377.2355518019352,53.0,0.0,0.0,0.0,118.0,0.0,0.0,0.0,0.0,0,224043.80966918555,7024127.905723262,-0.06199706328334287,0.010888395830988884,5.080258347334166e-07,224043.74738818567,7024127.907709797,0.06231267341226927
1709121595.5731146,1206,1709121595,572505074,,2,0,63.23966902177716,9.50187368164559,377.242618465693,57.0,0.0,0.0,0.0,127.0,0.0,0.0,0.0,0.0,0,224043.7962986803,7024128.025765304,-0.013370505243074149,0.12004204280674458,1.4015287774782337e-07,224043.7791167561,7024128.026313345,0.017190662216073443
1709121595.6720238,1207,1709121595,671503553,,2,0,63.23966884359957,9.501872786832411,377.2446105959735,49.0,0.0,0.0,0.0,112.0,0.0,0.0,0.0,0.0,0,224043.74976781325,7024128.009820008,-0.046530867053661495,-0.015945296734571457,3.7502192640204157e-07,224043.70379231477,7024128.011286457,0.04599887970248199
1709121595.774771,1208,1709121595,774226574,,2,0,63.23966938456599,9.50187320145382,377.2394386679101,52.0,0.0,0.0,0.0,119.0,0.0,0.0,0.0,0.0,0,224043.7757061824,7024128.068144295,0.025938369159121066,0.05832428764551878,-1.9620483726612292e-07,224043.7997597498,7024128.067377076,0.024065800006486983
1709121595.8702056,1209,1709121595,869445183,,2,0,63.23966951634908,9.501872055823926,377.24126167951897,56.0,0.0,0.0,0.0,127.0,0.0,0.0,0.0,0.0,0,224043.7195697747,7024128.087720324,-0.05613640771480277,0.019576028920710087,4.625271117220109e-07,224043.66286665108,7024128.089528944,0.05673196042809487
1709121595.9755332,1210,1709121595,974278383,,2,0,63.23966716994198,9.501872888166384,377.23685083254026,56.0,0.0,0.0,0.0,127.0,0.0,0.0,0.0,0.0,0,224043.73886107985,7024127.823414887,0.019291305157821625,-0.26430543698370457,-2.2589571813114162e-07,224043.76655457617,7024127.822531567,0.02770758006717933
1709121596.073135,1211,1709121596,72740470,,2,0,63.23966889314769,9.501871228108945,377.2393387568744,52.0,0.0,0.0,0.0,118.0,0.0,0.0,0.0,0.0,0,224043.67215047387,7024128.022037207,-0.0667106059845537,0.19862231984734535,5.952296930900047e-07,224043.59917879108,7024128.024364734,0.07300879310763055
1709121596.1682525,1212,1709121596,167195481,,2,0,63.23967315621329,9.501872316476184,377.2405585486408,53.0,0.0,0.0,0.0,120.0,0.0,0.0,0.0,0.0,0,224043.7673889856,7024128.4910422135,0.09523851174162701,0.46900500636547804,-6.541697530337842e-07,224043.84758637764,7024128.488484213,0.08023817703958472
1709121596.276937,1213,1709121596,275267040,,2,0,63.23967365251245,9.501872694325948,377.23599097324455,53.0,0.0,0.0,0.0,119.0,0.0,0.0,0.0,0.0,0,224043.79105855548,7024128.54456162,0.02366956986952573,0.053519406355917454,-1.7896590520649625e-07,224043.81299873194,7024128.543861809,0.021951334314789465
1709121596.371474,1214,1709121596,370778517,,2,0,63.23967264116815,9.501872416611487,377.2412196295588,54.0,0.0,0.0,0.0,122.0,0.0,0.0,0.0,0.0,0,224043.76748697297,7024128.433381702,-0.02357158251106739,-0.11117991805076599,1.6318068674081587e-07,224043.7474819721,7024128.434019787,0.020015174565137454
1709121596.4707851,1215,1709121596,469592673,,2,0,63.23967190695125,9.501870553912594,377.23913038524273,54.0,0.0,0.0,0.0,122.0,0.0,0.0,0.0,0.0,0,224043.66715579716,7024128.359819575,-0.10033117581042461,-0.0735621266067028,7.984493208823551e-07,224043.56927056675,7024128.362941752,0.09793501070404673
1709121596.5679097,1216,1709121596,567185081,,2,0,63.23967168017267,9.501871012730012,377.2351980862255,51.0,0.0,0.0,0.0,116.0,0.0,0.0,0.0,0.0,0,224043.6879763584,7024128.332645424,0.020820561243453994,-0.02717415150254965,-1.7672351759756566e-07,224043.70964163082,7024128.331954381,0.021676290467682272
1709121596.6736531,1217,1709121596,673230110,,2,0,63.239671660663575,9.501870551604254,377.24747246931497,54.0,0.0,0.0,0.0,120.0,0.0,0.0,0.0,0.0,0,224043.66468809784,7024128.332463212,-0.023288260563276708,-0.00018221139907836914,1.897217885016289e-07,224043.6414293133,7024128.3332050815,0.02327061295834798
1709121596.7764792,1218,1709121596,775733608,,2,0,63.23967074968574,9.501871278379804,377.248580293253,53.0,0.0,0.0,0.0,119.0,0.0,0.0,0.0,0.0,0,224043.6923989794,7024128.228110337,0.027710881549865007,-0.10435287561267614,-2.5293050498476077e-07,224043.72340678383,7024128.227121303,0.031023573686204862
1709121596.863266,1219,1709121596,862409258,,2,0,63.23966882311789,9.50187139333999,377.2472453315416,54.0,0.0,0.0,0.0,120.0,0.0,0.0,0.0,0.0,0,224043.67975960163,7024128.013544369,-0.012639377760933712,-0.21456596814095974,4.7225967136910185e-08,224043.67396997364,7024128.013729036,0.005792572336907429
1709121596.9753056,1220,1709121596,973962538,,2,0,63.23966772928053,9.501872732178487,377.24115049119104,54.0,0.0,0.0,0.0,120.0,0.0,0.0,0.0,0.0,0,224043.73638793355,7024127.886237563,0.05662833192036487,-0.12730680592358112,-4.945363514252676e-07,224043.79701520258,7024127.8843037775,0.06065810148395677
1709121597.1045449,1221,1709121597,103830587,,2,0,63.23966691195789,9.501872219113986,377.2487578979728,54.0,0.0,0.0,0.0,121.0,0.0,0.0,0.0,0.0,0,224043.70287845127,7024127.797629784,-0.03350948228035122,-0.08860777877271175,2.500285347650788e-07,224043.6722264134,7024127.7986074705,0.030667626208954375
1709121597.1762378,1222,1709121597,175416354,,2,0,63.239666028893694,9.501873553430425,377.2500613785574,55.0,0.0,0.0,0.0,123.0,0.0,0.0,0.0,0.0,0,224043.7612931268,7024127.693762549,0.05841467552818358,-0.10386723466217518,-5.030004786021891e-07,224043.8229580465,7024127.691795667,0.0616962798765491
1709121597.2875855,1223,1709121597,287075428,,2,0,63.23966806592442,9.50187134796861,377.2427903124317,56.0,0.0,0.0,0.0,127.0,0.0,0.0,0.0,0.0,0,224043.6702553237,7024127.929604034,-0.09103780309669673,0.23584148474037647,8.031386187212775e-07,224043.57179522308,7024127.932744547,0.09851017325709165
1709121597.371236,1224,1709121597,370128522,,2,0,63.23966760990014,9.501869501690146,377.241013231914,54.0,0.0,0.0,0.0,123.0,0.0,0.0,0.0,0.0,0,224043.5734035269,7024127.886882633,-0.09685179678490385,-0.04272140096873045,7.781128772421653e-07,224043.47801143274,7024127.889925286,0.09544060649606358
1709121597.4733217,1225,1709121597,472619956,,2,0,63.23966613084865,9.5018699881,377.2472477162023,54.0,0.0,0.0,0.0,123.0,0.0,0.0,0.0,0.0,0,224043.58364720555,7024127.720443122,0.010243678640108556,-0.1664395108819008,-1.2673257288042805e-07,224043.59918387872,7024127.71994756,0.01554457445560691
1709121597.567159,1226,1709121597,566068583,,2,0,63.23966509802252,9.501869721567378,377.2423822651756,53.0,0.0,0.0,0.0,121.0,0.0,0.0,0.0,0.0,0,224043.56043066247,7024127.606828099,-0.023216543078888208,-0.11361502297222614,1.5965468946887995e-07,224043.5408579306,7024127.607452396,0.019582685709681743
1709121597.666871,1227,1709121597,666106599,,2,0,63.239667087823904,9.501870167673896,377.2444602285641,49.0,0.0,0.0,0.0,110.0,0.0,0.0,0.0,0.0,0,224043.60178282263,7024127.826004393,0.04135216015856713,0.21917629428207874,-2.7999971052850015e-07,224043.63610915022,7024127.824909511,0.03434378448833609
1709121597.7731435,1228,1709121597,772479569,,2,0,63.23966771109462,9.501870557565397,377.23976595457935,51.0,0.0,0.0,0.0,116.0,0.0,0.0,0.0,0.0,0,224043.6272682589,7024127.89358042,0.025485436257440597,0.06757602654397488,-1.9010937535313133e-07,224043.65057455763,7024127.8928370355,0.023318151328703133
1709121597.870485,1229,1709121597,869717539,,2,0,63.239666437116206,9.501869306842012,377.240976426028,48.0,0.0,0.0,0.0,109.0,0.0,0.0,0.0,0.0,0,224043.55244170575,7024127.757407508,-0.07482655314379372,-0.1361729120835662,5.743463589169551e-07,224043.482030197,7024127.759653374,0.07044731704269319
1709121597.9699042,1230,1709121597,968054024,,2,0,63.23966720216882,9.501868555203002,377.2383613998819,50.0,0.0,0.0,0.0,112.0,0.0,0.0,0.0,0.0,0,224043.52209159636,7024127.845652935,-0.03035010938765481,0.08824542723596096,2.702502683860075e-07,224043.4889604927,7024127.846709694,0.03314795271841192
1709121598.066523,1231,1709121598,64874963,,2,0,63.2396654919355,9.50187265277168,377.241585348465,55.0,0.0,0.0,0.0,124.0,0.0,0.0,0.0,0.0,0,224043.7110430351,7024127.637976448,0.18895143872941844,-0.20767648704349995,-1.5936875286115537e-06,224043.90641981567,7024127.631744654,0.19547614086876205
1709121598.1675496,1232,1709121598,166998902,,2,0,63.23966307372187,9.501872900749955,377.2393334929507,55.0,0.0,0.0,0.0,124.0,0.0,0.0,0.0,0.0,0,224043.70037251431,7024127.36820841,-0.010670520772691816,-0.2697680378332734,1.683454797785089e-08,224043.69830869714,7024127.368274238,0.0020648667276030284
1709121598.2841833,1233,1709121598,283518665,,2,0,63.2396623067512,9.501873596851844,377.24050143778766,55.0,0.0,0.0,0.0,125.0,0.0,0.0,0.0,0.0,0,224043.72792196143,7024127.279988994,0.027549447113415226,-0.08821941632777452,-2.4742178084125044e-07,224043.75825442426,7024127.279021501,0.030347888637687587
1709121598.367798,1234,1709121598,367220602,,2,0,63.23966255998271,9.501874145554009,377.24887476479455,55.0,0.0,0.0,0.0,124.0,0.0,0.0,0.0,0.0,0,224043.75782977676,7024127.305764228,0.02990781533299014,0.02577523421496153,-2.3701065288150858e-07,224043.78688589585,7024127.304837445,0.029070895823918818
1709121598.4690046,1235,1709121598,468173066,,2,0,63.23966312970204,9.501872793888923,377.2417372710975,57.0,0.0,0.0,0.0,129.0,0.0,0.0,0.0,0.0,0,224043.69555349147,7024127.374888784,-0.06227628528722562,0.0691245561465621,5.254375423646707e-07,224043.63113792334,7024127.376943403,0.06444832717959159
1709121598.5630236,1236,1709121598,562185318,,2,0,63.23966414084992,9.501871893104056,377.2402477245437,57.0,0.0,0.0,0.0,129.0,0.0,0.0,0.0,0.0,0,224043.66008152504,7024127.491121335,-0.03547196643194184,0.1162325507029891,3.192610336100188e-07,224043.62094199008,7024127.492369741,0.03915943966503607
1709121598.667414,1237,1709121598,666714033,,2,0,63.23966370787591,9.501871405453764,377.2442838185655,46.0,0.0,0.0,0.0,103.0,0.0,0.0,0.0,0.0,0,224043.63151580503,7024127.4451111015,-0.02856572001473978,-0.04601023346185684,2.208149680882343e-07,224043.60444518132,7024127.445974554,0.02708439066984095
1709121598.770367,1238,1709121598,769507872,,2,0,63.23966293006213,9.501871470865565,377.24287489473767,47.0,0.0,0.0,0.0,106.0,0.0,0.0,0.0,0.0,0,224043.6273647329,7024127.358402516,-0.004151072120293975,-0.08670858573168516,1.1289131407465902e-08,224043.6259807514,7024127.3584466595,0.0013846853230774345
1709121598.8746636,1239,1709121598,873483554,,2,0,63.23966122728736,9.50187239269086,377.2375520042645,43.0,0.0,0.0,0.0,97.0,0.0,0.0,0.0,0.0,0,224043.65728575352,7024127.165229109,0.029921020613983274,-0.19317340664565563,-2.940259946626611e-07,224043.69333162025,7024127.164079379,0.03606419813053677
1709121598.9704344,1240,1709121598,969811589,,2,0,63.2396626991465,9.50187197108453,377.2429285787569,43.0,0.0,0.0,0.0,97.0,0.0,0.0,0.0,0.0,0,224043.65021997067,7024127.330590407,-0.007065782847348601,0.1653612982481718,1.0055663324237685e-07,224043.6378923161,7024127.330983614,0.01233392389139552
1709121599.072789,1241,1709121599,71682436,,2,0,63.2396605757991,9.501874564358875,377.2431216356137,40.0,0.0,0.0,0.0,90.0,0.0,0.0,0.0,0.0,0,224043.75986250665,7024127.0834879605,0.10964253597194329,-0.24710244685411453,-9.576700676916516e-07,224043.87726725359,7024127.079743183,0.11746445403132788
1709121599.168357,1242,1709121599,166867892,,2,0,63.23966024066544,9.501874010826878,377.2409640869185,44.0,0.0,0.0,0.0,98.0,0.0,0.0,0.0,0.0,0,224043.72893055272,7024127.048632951,-0.030931953922845423,-0.03485500905662775,2.429960943572951e-07,224043.69914065438,7024127.04958314,0.02980504824868566
1709121599.2727222,1243,1709121599,272161324,,2,0,63.23966120035866,9.501876033246946,377.2425931278847,43.0,0.0,0.0,0.0,95.0,0.0,0.0,0.0,0.0,0,224043.8394169412,7024127.146561189,0.11048638846841641,0.097928237169981,-8.748682205350633e-07,224043.94667066183,7024127.14314019,0.10730826538355147
1709121599.371689,1244,1709121599,370763317,,2,0,63.23966304573205,9.501876722106635,377.2429368851291,43.0,0.0,0.0,0.0,96.0,0.0,0.0,0.0,0.0,0,224043.89155149183,7024127.34864408,0.052134550642222166,0.20208289101719856,-3.7230498151075153e-07,224043.93719390302,7024127.347188255,0.04566562301361348
1709121599.4725351,1245,1709121599,471759685,,2,0,63.23966361242933,9.501876481322276,377.2435853117156,42.0,0.0,0.0,0.0,94.0,0.0,0.0,0.0,0.0,0,224043.88490039532,7024127.412649542,-0.006651096511632204,0.06400546245276928,7.083374953253951e-08,224043.87621659206,7024127.412926524,0.008688219494152317
1709121599.5695193,1246,1709121599,567580160,,2,0,63.23966399061129,9.501880950435828,377.2505076120725,43.0,0.0,0.0,0.0,97.0,0.0,0.0,0.0,0.0,0,224044.1124103074,7024127.435427933,0.2275099120743107,0.022778390906751156,-1.8479909158486407e-06,224044.3389631836,7024127.428201724,0.226668091747736
1709121599.6682916,1247,1709121599,667465246,,2,0,63.23966323313336,9.50188228845964,377.2539945057895,44.0,0.0,0.0,0.0,99.0,0.0,0.0,0.0,0.0,0,224044.17221008887,7024127.345499286,0.059799781476613134,-0.08992864657193422,-5.106645346586447e-07,224044.23481457387,7024127.343502431,0.06263632310449631
1709121599.7733836,1248,1709121599,772762742,,2,0,63.23966276435642,9.501885181975265,377.2454397588093,45.0,0.0,0.0,0.0,101.0,0.0,0.0,0.0,0.0,0,224044.3126956092,7024127.280951987,0.14048552032909356,-0.06454729940742254,-1.1615519497354398e-06,224044.45509508223,7024127.2764099585,0.14247189176104907
1709121599.8624732,1249,1709121599,861849952,,2,0,63.239662007567816,9.501888523785563,377.2428374034153,43.0,0.0,0.0,0.0,97.0,0.0,0.0,0.0,0.0,0,224044.47288975632,7024127.18247193,0.16019414711627178,-0.09848005697131157,-1.3309714006481954e-06,224044.6360590613,7024127.177267416,0.16325228651408027
1709121599.9772997,1250,1709121599,975885322,,2,0,63.23966177227608,9.501889487276149,377.24935369052326,46.0,0.0,0.0,0.0,103.0,0.0,0.0,0.0,0.0,0,224044.5189126727,7024127.152178796,0.04602291638730094,-0.030293134041130543,-3.829008221600816e-07,224044.56585407216,7024127.150681534,0.04696527203190757
1709121600.0767248,1251,1709121600,75776744,,2,0,63.239662942247016,9.501891307433649,377.23524912508384,49.0,0.0,0.0,0.0,111.0,0.0,0.0,0.0,0.0,0,224044.6212740218,7024127.27434302,0.10236134909791872,0.1221642242744565,-8.023602617868164e-07,224044.71963869277,7024127.271205538,0.0984146954949181
1709121600.1676016,1252,1709121600,166855316,,2,0,63.23966269385614,9.501892581514769,377.23732559672106,48.0,0.0,0.0,0.0,106.0,0.0,0.0,0.0,0.0,0,224044.6827321277,7024127.24125702,0.061458105890778825,-0.03308600001037121,-5.094035770980554e-07,224044.74518202522,7024127.239265091,0.06248165717806086
1709121600.2697132,1253,1709121600,268250763,,2,0,63.23966249746744,9.501893504560384,377.23603810302455,48.0,0.0,0.0,0.0,106.0,0.0,0.0,0.0,0.0,0,224044.72710031405,7024127.215460758,0.044368186354404315,-0.02579626254737377,-3.682481235500745e-07,224044.77224537882,7024127.2140207905,0.04516802384797567
1709121600.3773386,1254,1709121600,376273168,,2,0,63.23966171242667,9.501896246078196,377.24045660217473,53.0,0.0,0.0,0.0,118.0,0.0,0.0,0.0,0.0,0,224044.8569505915,7024127.1164262425,0.12985027744434774,-0.09903451520949602,-1.0838522825906693e-06,224044.98982453748,7024127.112188034,0.13294152073497412
1709121600.471773,1255,1709121600,467447709,,2,0,63.239660327474695,9.50190003076872,377.233190080884,60.0,0.0,0.0,0.0,133.0,0.0,0.0,0.0,0.0,0,224045.03333369116,7024126.946240743,0.1763830996642355,-0.17018549982458353,-1.4815278177593427e-06,224045.21496032758,7024126.940447492,0.18171900510122294
1709121600.580487,1256,1709121600,579732874,,2,0,63.23966158383309,9.501903486528516,377.2337880513269,57.0,0.0,0.0,0.0,125.0,0.0,0.0,0.0,0.0,0,224045.21846212464,7024127.070961305,0.18512843348435126,0.12472056224942207,-1.4761404258933908e-06,224045.39942829395,7024127.065189116,0.18105820225508626
1709121600.6720383,1257,1709121600,671511873,,2,0,63.23966191496438,9.501905349153397,377.2334758994856,53.0,0.0,0.0,0.0,118.0,0.0,0.0,0.0,0.0,0,224045.3149401329,7024127.0997348605,0.09647800825769082,0.028773555532097816,-7.786922253671946e-07,224045.41040324004,7024127.096689918,0.09551165634780373
1709121600.769799,1258,1709121600,768698450,,2,0,63.23966448909936,9.501906322251068,377.2295056601358,55.0,0.0,0.0,0.0,123.0,0.0,0.0,0.0,0.0,0,224045.388274285,7024127.381570379,0.07333415211178362,0.28183551877737045,-5.243250029707269e-07,224045.45255346043,7024127.379520096,0.06431186558302307
1709121600.8641896,1259,1709121600,863577021,,2,0,63.239664391918375,9.501910365169962,377.22448803472986,50.0,0.0,0.0,0.0,112.0,0.0,0.0,0.0,0.0,0,224045.58989254132,7024127.353363951,0.20161825630930252,-0.02820642851293087,-1.6502591222433693e-06,224045.79220465542,7024127.346910891,0.20241500312029276
1709121600.9665215,1260,1709121600,965539934,,2,0,63.23966418018921,9.50191394364287,377.2232704990853,53.0,0.0,0.0,0.0,118.0,0.0,0.0,0.0,0.0,0,224045.7671485753,7024127.31442932,0.17725603398866951,-0.03893463034182787,-1.4545269664267835e-06,224045.94546507145,7024127.308741633,0.1784071819870287
1709121601.090977,1261,1709121601,90164247,,2,0,63.239664888795474,9.50191675310572,377.2216231359157,53.0,0.0,0.0,0.0,119.0,0.0,0.0,0.0,0.0,0,224045.9146671032,7024127.381069175,0.1475185278977733,0.06663985457271338,-1.184764300887764e-06,224046.05991227404,7024127.376436346,0.14531903781777825
1709121601.172583,1262,1709121601,171236316,,2,0,63.23966688063906,9.501921830382804,377.2169228243436,55.0,0.0,0.0,0.0,124.0,0.0,0.0,0.0,0.0,0,224046.18805575892,7024127.580531397,0.27338865571073256,0.19946222193539143,-2.1759201729310007e-06,224046.45481084258,7024127.572022807,0.2668907468699077
1709121601.2797194,1263,1709121601,279204993,,2,0,63.23966867853061,9.501926717046556,377.2249922394515,55.0,0.0,0.0,0.0,122.0,0.0,0.0,0.0,0.0,0,224046.45004261093,7024127.759263372,0.26198685201234184,0.178731975145638,-2.0883982188024675e-06,224046.7060680223,7024127.751097012,0.25615561812123366
1709121601.3698237,1264,1709121601,367752642,,2,0,63.23966962372699,9.501929006567758,377.2230395428128,56.0,0.0,0.0,0.0,125.0,0.0,0.0,0.0,0.0,0,224046.57377195067,7024127.854430792,0.12372933974256739,0.095167419873178,-9.834982961365313e-07,224046.69434309466,7024127.85058497,0.12063246291454496
1709121601.4720268,1265,1709121601,470799157,,2,0,63.23967200358999,9.50193171487004,377.2120018462602,60.0,0.0,0.0,0.0,133.0,0.0,0.0,0.0,0.0,0,224046.7321827581,7024128.107208295,0.15841080743120983,0.2527775028720498,-1.2251417444986146e-06,224046.88237797882,7024128.102417559,0.15027160567634482
1709121601.568212,1266,1709121601,567568447,,2,0,63.23967303125196,9.501936922819503,377.21053559468106,53.0,0.0,0.0,0.0,119.0,0.0,0.0,0.0,0.0,0,224047.00291001383,7024128.1989727,0.27072725573088974,0.0917644053697586,-2.1822253017944604e-06,224047.27043809704,7024128.190439423,0.2676641405358826
1709121601.6714132,1267,1709121601,669932743,,2,0,63.239672664906585,9.501939390656403,377.2175713275301,44.0,0.0,0.0,0.0,99.0,0.0,0.0,0.0,0.0,0,224047.1230476611,7024128.1476401165,0.12013764725998044,-0.05133258365094662,-9.923084292040585e-07,224047.24469888353,7024128.143759835,0.12171309094632252
1709121601.7735682,1268,1709121601,772989338,,2,0,63.23967317207515,9.5019424180338,377.2107867960383,46.0,0.0,0.0,0.0,102.0,0.0,0.0,0.0,0.0,0,224047.2795597156,7024128.190958946,0.1565120544983074,0.043318829499185085,-1.264111176624283e-06,224047.4345323675,7024128.186015815,0.15505146690805205
1709121601.8710332,1269,1709121601,869670946,,2,0,63.2396754870782,9.501948878741809,377.1982847938484,41.0,0.0,0.0,0.0,90.0,0.0,0.0,0.0,0.0,0,224047.6253428849,7024128.420372432,0.345783169294009,0.22941348608583212,-2.7580561834383843e-06,224047.96346447675,7024128.409587424,0.33829355193173166
1709121601.9678824,1270,1709121601,967355196,,2,0,63.23967691021252,9.5019548563567,377.19421114566575,47.0,0.0,0.0,0.0,103.0,0.0,0.0,0.0,0.0,0,224047.93840627675,7024128.552765879,0.31306339186266996,0.1323934467509389,-2.5166495163375657e-06,224048.24693283017,7024128.542924844,0.3086834626859838
1709121602.062606,1271,1709121602,62113701,,2,0,63.239677483336514,9.501958637335663,377.18761314913945,53.0,0.0,0.0,0.0,116.0,0.0,0.0,0.0,0.0,0,224048.1333028593,7024128.600168545,0.19489658254315145,0.047402665950357914,-1.5758337497118191e-06,224048.32649089032,7024128.594006442,0.19328628207454873
1709121602.1767943,1272,1709121602,176213583,,2,0,63.23967695493724,9.501965166545364,377.1894527113179,49.0,0.0,0.0,0.0,107.0,0.0,0.0,0.0,0.0,0,224048.45536368716,7024128.51334193,0.322060827864334,-0.0868266150355339,-2.6469462568456947e-06,224048.77986386933,7024128.5029913625,0.324665215994368
1709121602.2740338,1273,1709121602,273270974,,2,0,63.239678040212425,9.501970786319212,377.1798643633508,46.0,0.0,0.0,0.0,100.0,0.0,0.0,0.0,0.0,0,224048.74727304047,7024128.609734953,0.29190935331280343,0.09639302361756563,-2.3536285311820393e-06,224049.0358141757,7024128.600531357,0.2886878814592543
1709121602.3704245,1274,1709121602,367659265,,2,0,63.239679945002734,9.501976550959355,377.1744704052189,46.0,0.0,0.0,0.0,100.0,0.0,0.0,0.0,0.0,0,224049.05426627293,7024128.796564833,0.30699323245789856,0.18682987987995148,-2.453036216820692e-06,224049.35499421495,7024128.786972502,0.30088088661491774
1709121602.4800556,1275,1709121602,479299107,,2,0,63.23967950924964,9.501981555970657,377.1706967165085,49.0,0.0,0.0,0.0,107.0,0.0,0.0,0.0,0.0,0,224049.3008510176,7024128.7265955685,0.24658474465832114,-0.06996926479041576,-2.027532445936231e-06,224049.5494146841,7024128.718667114,0.2486900816190247
1709121602.5697083,1276,1709121602,568634769,,2,0,63.23968014909609,9.50198527540931,377.1746680629876,43.0,0.0,0.0,0.0,94.0,0.0,0.0,0.0,0.0,0,224049.49330164076,7024128.781677175,0.19245062317349948,0.05508160684257746,-1.5539063156211341e-06,224049.6838015009,7024128.775600781,0.19059674522256137
1709121602.6687114,1277,1709121602,667851812,,2,0,63.23968166946548,9.501991939255984,377.1705675461108,46.0,0.0,0.0,0.0,100.0,0.0,0.0,0.0,0.0,0,224049.8416730145,7024128.921920341,0.34837137375143357,0.14024316612631083,-2.802323024297948e-06,224050.1852214916,7024128.910962125,0.3437232005864164
1709121602.7744706,1278,1709121602,773468898,,2,0,63.23968489211977,9.501998142233685,377.1579612987472,42.0,0.0,0.0,0.0,91.0,0.0,0.0,0.0,0.0,0,224050.1832117677,7024129.253297677,0.3415387531858869,0.33137733582407236,-2.6969661348630325e-06,224050.5138441105,7024129.2427514335,0.330800497838512
1709121602.8718517,1279,1709121602,871129019,,2,0,63.239686430661344,9.502005044397611,377.15586331597297,46.0,0.0,0.0,0.0,100.0,0.0,0.0,0.0,0.0,0,224050.5436960542,7024129.394533984,0.36048428650246933,0.14123630709946156,-2.9007690898197325e-06,224050.89931346927,7024129.383190769,0.3557982777402245
1709121602.9702802,1280,1709121602,969124441,,2,0,63.23968758042228,9.50201120779863,377.1425241222098,42.0,0.0,0.0,0.0,91.0,0.0,0.0,0.0,0.0,0,224050.86345625384,7024129.49575182,0.31976019963622093,0.10121783521026373,-2.5793221709591307e-06,224051.17966615307,7024129.48566558,0.3163707201941299
1709121603.0743823,1281,1709121603,73131644,,2,0,63.23968716839287,9.502015828604634,377.14246468130455,39.0,0.0,0.0,0.0,85.0,0.0,0.0,0.0,0.0,0,224051.09101922132,7024129.430073046,0.22756296748411842,-0.06567877344787121,-1.8714143550369045e-06,224051.3204437422,7024129.422755016,0.22954120403650932
1709121603.185378,1282,1709121603,184447960,,2,0,63.23968811026838,9.502022972592057,377.1436669504754,45.0,0.0,0.0,0.0,98.0,0.0,0.0,0.0,0.0,0,224051.45792053503,7024129.503969549,0.3669013137114234,0.0738965030759573,-2.9705624342568626e-06,224051.82209421726,7024129.492353366,0.36435889799506926
1709121603.2825963,1283,1709121603,281895310,,2,0,63.2396897886743,9.502028497496852,377.13452223654673,45.0,0.0,0.0,0.0,97.0,0.0,0.0,0.0,0.0,0,224051.75074109551,7024129.666677171,0.29282056048396043,0.16270762216299772,-2.343816305483415e-06,224052.0380793496,7024129.657511822,0.28748439241555046
1709121603.3755612,1284,1709121603,374453106,,2,0,63.239690382074215,9.502035411663694,377.1336472269472,46.0,0.0,0.0,0.0,102.0,0.0,0.0,0.0,0.0,0,224052.102800729,7024129.702842354,0.3520596334710717,0.03616518247872591,-2.859429059753893e-06,224052.45335011752,7024129.691660717,0.3507276761239462
1709121603.4700794,1285,1709121603,467442749,,2,0,63.23969102482258,9.502042482914815,377.1106500345759,45.0,0.0,0.0,0.0,100.0,0.0,0.0,0.0,0.0,0,224052.4632013793,7024129.743814576,0.36040065030101687,0.040972222574055195,-2.9261480278819363e-06,224052.82193012748,7024129.73237202,0.35891119635524915
1709121603.5707412,1286,1709121603,567992326,,2,0,63.23969330835439,9.502048693536132,377.108569311366,43.0,0.0,0.0,0.0,95.0,0.0,0.0,0.0,0.0,0,224052.79615434888,7024129.970808477,0.3329529695911333,0.22699390072375536,-2.654133510304746e-06,224053.12153569944,7024129.960429605,0.3255468388356332
1709121603.6716733,1287,1709121603,670880886,,2,0,63.2396957926344,9.5020547916439,377.1117018906373,40.0,0.0,0.0,0.0,89.0,0.0,0.0,0.0,0.0,0,224053.12538754364,7024130.220593043,0.32923319475958124,0.24978456553071737,-2.6178981329394446e-06,224053.4463266578,7024130.210355852,0.32110234362633455
1709121603.7706375,1288,1709121603,770129546,,2,0,63.23969332479368,9.50206285638652,377.1079043712722,37.0,0.0,0.0,0.0,82.0,0.0,0.0,0.0,0.0,0,224053.50585585623,7024129.911653911,0.3804683125927113,-0.3089391319081187,-3.1806237643650093e-06,224053.89578187998,7024129.8992161825,0.3901243405413352
1709121603.870653,1289,1709121603,869637762,,2,0,63.23969323030187,9.5020697863355,377.1074251367452,38.0,0.0,0.0,0.0,84.0,0.0,0.0,0.0,0.0,0,224053.85213694605,7024129.871316093,0.34628108981996775,-0.0403378177434206,-2.8322262721758307e-06,224054.19935144298,7024129.860240744,0.34739109116810396
1709121603.9763904,1290,1709121603,975467523,,2,0,63.2396934507341,9.502078961643262,377.0913860348847,40.0,0.0,0.0,0.0,88.0,0.0,0.0,0.0,0.0,0,224054.3139156729,7024129.856303326,0.4617787268362008,-0.015012767165899277,-3.7667994945422834e-06,224054.77570341792,7024129.841573327,0.46202261236494707
1709121604.0725546,1291,1709121604,72106251,,2,0,63.23969463188797,9.50208785278108,377.0876321355303,44.0,0.0,0.0,0.0,98.0,0.0,0.0,0.0,0.0,0,224054.7706323249,7024129.949264969,0.4567166519991588,0.0929616428911686,-3.6974848001136706e-06,224055.2239224899,7024129.934805993,0.453520711420149
1709121604.171873,1292,1709121604,171024089,,2,0,63.23969682402768,9.502097803399083,377.077448041388,40.0,0.0,0.0,0.0,88.0,0.0,0.0,0.0,0.0,0,224055.29008237447,7024130.150000803,0.51945004958543,0.2007358344271779,-4.180667019682005e-06,224055.80260788047,7024130.133652314,0.5127861809846923
1709121604.2813585,1293,1709121604,280385269,,2,0,63.23969869067402,9.50210577622324,377.0579794076047,41.0,0.0,0.0,0.0,91.0,0.0,0.0,0.0,0.0,0,224055.7073385539,7024130.323085192,0.4172561794403009,0.173084388487041,-3.355106798608176e-06,224056.1186551814,7024130.309965026,0.411525827630719
1709121604.376676,1294,1709121604,375736263,,2,0,63.2396976364575,9.50211385770666,377.0412268181557,41.0,0.0,0.0,0.0,90.0,0.0,0.0,0.0,0.0,0,224056.10214531515,7024130.171149457,0.3948067612363957,-0.15193573478609324,-3.2566547645274113e-06,224056.5013923043,7024130.158414264,0.3994500512806321
1709121604.478161,1295,1709121604,477606086,,2,0,63.2396979745625,9.50212280490332,377.0498068799184,41.0,0.0,0.0,0.0,91.0,0.0,0.0,0.0,0.0,0,224056.553619567,7024130.170194421,0.451474251865875,-0.0009550359100103378,-3.6791772117794608e-06,224057.00466534824,7024130.155806922,0.45127518974594116
1709121604.5699558,1296,1709121604,569261851,,2,0,63.23969914306045,9.502128282868108,377.0322848260357,40.0,0.0,0.0,0.0,87.0,0.0,0.0,0.0,0.0,0,224056.83921871652,7024130.27644607,0.28559914950164966,0.10625164862722158,-2.2996443931333488e-06,224057.1211417777,7024130.267453248,0.28206645186935964
1709121604.6738138,1297,1709121604,673149084,,2,0,63.2396996826873,9.502136049971313,377.03069089304586,40.0,0.0,0.0,0.0,87.0,0.0,0.0,0.0,0.0,0,224057.2334959056,7024130.302964352,0.39427718907245435,0.02651828248053789,-3.2059542434126342e-06,224057.62652730226,7024130.290427362,0.3932312994896028
1709121604.776765,1298,1709121604,775215551,,2,0,63.23970314338288,9.50214454292477,377.0214085456676,41.0,0.0,0.0,0.0,89.0,0.0,0.0,0.0,0.0,0,224057.6920323421,7024130.650932636,0.4585364365193527,0.34796828404068947,-3.646029256287875e-06,224058.1390143847,7024130.636674692,0.44720938650835634
1709121604.8723533,1299,1709121604,867176697,,2,0,63.23970234586971,9.502151550182322,377.0095462962569,40.0,0.0,0.0,0.0,86.0,0.0,0.0,0.0,0.0,0,224058.03547290515,7024130.532146029,0.34344056303962134,-0.11878660693764687,-2.829470645338006e-06,224058.38234961472,7024130.52108125,0.3470531385554802
1709121604.970456,1300,1709121604,968297675,,2,0,63.23970367121656,9.50216188481956,377.0068336154394,38.0,0.0,0.0,0.0,83.0,0.0,0.0,0.0,0.0,0,224058.5658841248,7024130.634915054,0.5304112196608912,0.10276902467012405,-4.29544965641071e-06,224059.0924813594,7024130.618117462,0.5268650743576823
1709121605.073766,1301,1709121605,72870679,,2,0,63.23970402397509,9.502171309342094,377.0120735460841,40.0,0.0,0.0,0.0,87.0,0.0,0.0,0.0,0.0,0,224059.04141174885,7024130.633533402,0.4755276240466628,-0.0013816514983773232,-3.875291525901048e-06,224059.51650003856,7024130.618378826,0.4753299319287562
1709121605.172783,1302,1709121605,169039640,,2,0,63.239705951768414,9.502176214893757,377.0140933397916,42.0,0.0,0.0,0.0,93.0,0.0,0.0,0.0,0.0,0,224059.30558433413,7024130.8266191445,0.2641725852736272,0.19308574218302965,-2.10247432619326e-06,224059.56333550598,7024130.818397271,0.25788227118175044
1709121605.2746463,1303,1709121605,274044523,,2,0,63.2397028780688,9.50218634552295,377.0099428154278,33.0,0.0,0.0,0.0,72.0,0.0,0.0,0.0,0.0,0,224059.78376624512,7024130.441465694,0.47818191099213436,-0.3851534500718117,-3.996674934114708e-06,224060.2737354508,7024130.42583639,0.4902184183496148
1709121605.3706322,1304,1709121605,369655778,,2,0,63.23970678770503,9.502195324322928,377.0036295718662,37.0,0.0,0.0,0.0,82.0,0.0,0.0,0.0,0.0,0,224060.27092991016,7024130.837226619,0.48716366503504105,0.39576092455536127,-3.866879922043154e-06,224060.74498697292,7024130.822104855,0.4742981830957511
1709121605.476576,1305,1709121605,475658758,,2,0,63.23970511270954,9.502202592486562,376.99456087429496,39.0,0.0,0.0,0.0,85.0,0.0,0.0,0.0,0.0,0,224060.6190621692,7024130.619815277,0.3481322590378113,-0.21741134207695723,-2.8933379212503496e-06,224060.97376864622,7024130.608500612,0.35488689252566274
1709121605.5777738,1306,1709121605,576679031,,2,0,63.23970974606707,9.502213456770344,376.9934608769346,38.0,0.0,0.0,0.0,83.0,0.0,0.0,0.0,0.0,0,224061.20759762535,7024131.087874665,0.5885354561614804,0.4680593879893422,-4.674134942206365e-06,224061.78061948848,7024131.069595991,0.5733133223173987
1709121605.6731927,1307,1709121605,672681876,,2,0,63.23970984267229,9.502220583296603,377.00491717819153,35.0,0.0,0.0,0.0,77.0,0.0,0.0,0.0,0.0,0,224061.56555177976,7024131.067925083,0.3579541544022504,-0.01994958147406578,-2.9220466615242913e-06,224061.92377779487,7024131.056498102,0.3584082223010987
1709121605.772835,1308,1709121605,771930664,,2,0,63.23971025936868,9.50222773727704,377.0031922716301,42.0,0.0,0.0,0.0,91.0,0.0,0.0,0.0,0.0,0,224061.92793804183,7024131.083424347,0.3623862620734144,0.015499264001846313,-2.9489482074041007e-06,224062.28946202982,7024131.071892146,0.36170787323489506
1709121605.8656197,1309,1709121605,865115734,,2,0,63.23971030129468,9.502236235424787,376.9879324128204,41.0,0.0,0.0,0.0,90.0,0.0,0.0,0.0,0.0,0,224062.35408686387,7024131.051493538,0.42614882203633897,-0.03193080984055996,-3.4808589077783836e-06,224062.780820027,7024131.037881214,0.4269502170768928
1709121605.9668777,1310,1709121605,966094599,,2,0,63.239708033743,9.502242560202625,376.98057017876187,42.0,0.0,0.0,0.0,92.0,0.0,0.0,0.0,0.0,0,224062.64929800568,7024130.772302216,0.2952111418126151,-0.2791913216933608,-2.4781587342204148e-06,224062.9531059275,7024130.762611058,0.30396245148443357
1709121606.0707798,1311,1709121606,69897094,,2,0,63.23970934574906,9.50225002422685,376.9898664336379,38.0,0.0,0.0,0.0,85.0,0.0,0.0,0.0,0.0,0,224063.0357668012,7024130.885949234,0.38646879550651647,0.11364701762795448,-3.1196775296393753e-06,224063.41822120015,7024130.873749316,0.38264893215498996
1709121606.1608005,1312,1709121606,160160900,,2,0,63.23971106795888,9.50226089023943,376.9879094011985,37.0,0.0,0.0,0.0,81.0,0.0,0.0,0.0,0.0,0,224063.5965888622,7024131.030528739,0.5608220610010903,0.14457950554788113,-4.5323894255488995e-06,224064.1522335673,7024131.012804185,0.5559273316977198
1709121606.2801216,1313,1709121606,279565703,,2,0,63.239714012617554,9.502272339535445,376.9874426352442,46.0,0.0,0.0,0.0,101.0,0.0,0.0,0.0,0.0,0,224064.1983063316,7024131.308429679,0.6017174693988636,0.2779009398072958,-4.830978440395484e-06,224064.7905563335,7024131.2895374,0.5925512492279839
1709121606.363943,1314,1709121606,363386682,,2,0,63.239713272282096,9.502279036635697,376.9756801350238,42.0,0.0,0.0,0.0,92.0,0.0,0.0,0.0,0.0,0,224064.52675443116,7024131.197332479,0.3284480995789636,-0.1110971998423338,-2.705303273842219e-06,224064.85840897137,7024131.186752955,0.33182323661669094
1709121606.4767926,1315,1709121606,475828329,,2,0,63.23971447055244,9.502292094820776,376.9884088210941,42.0,0.0,0.0,0.0,93.0,0.0,0.0,0.0,0.0,0,224065.19239866792,7024131.274256115,0.6656442367529962,0.07692363578826189,-5.40413967087261e-06,224065.85491493565,7024131.253122311,0.6628532587821615
1709121606.5670469,1316,1709121606,565866275,,2,0,63.23971445847621,9.502300502711233,376.98357862072913,40.0,0.0,0.0,0.0,88.0,0.0,0.0,0.0,0.0,0,224065.61350997092,7024131.23671387,0.42111130300327204,-0.03754224441945553,-3.4412682339279854e-06,224066.03538955798,7024131.223256175,0.42209417850613723
1709121606.66869,1317,1709121606,667587519,,2,0,63.23971438422602,9.502308269816549,376.9840202363962,48.0,0.0,0.0,0.0,104.0,0.0,0.0,0.0,0.0,0,224066.0019248881,7024131.195022118,0.388414917193586,-0.04169175215065479,-3.1759138323650404e-06,224066.39127355785,7024131.182602116,0.38954671489152665
1709121606.7674615,1318,1709121606,766473005,,2,0,63.23971679829978,9.502314400539095,376.987388120179,46.0,0.0,0.0,0.0,101.0,0.0,0.0,0.0,0.0,0,224066.33212037163,7024131.436866602,0.3301954835187644,0.2418444836512208,-2.627798920684654e-06,224066.65427332107,7024131.426590089,0.3223168154959474
1709121606.8675437,1319,1709121606,867018070,,2,0,63.23971620495137,9.50232453710608,376.98840938580616,49.0,0.0,0.0,0.0,108.0,0.0,0.0,0.0,0.0,0,224066.8342858455,7024131.327293484,0.5021654738811776,-0.1095731183886528,-4.120477939295597e-06,224067.33943262667,7024131.311179533,0.5054037296322493
1709121606.9659145,1320,1709121606,965514717,,2,0,63.23971939888956,9.50232873424694,376.9910223941813,48.0,0.0,0.0,0.0,105.0,0.0,0.0,0.0,0.0,0,224067.07505792088,7024131.664117915,0.2407720753690228,0.33682443108409643,-1.8744250382951577e-06,224067.30485159394,7024131.656787589,0.22991056054439402
1709121607.0984294,1321,1709121607,95615794,,2,0,63.2397209656806,9.502336998117489,376.9892754203245,46.0,0.0,0.0,0.0,102.0,0.0,0.0,0.0,0.0,0,224067.50403087068,7024131.80263222,0.42897294979775324,0.13851430546492338,-3.459565959929023e-06,224067.9281536767,7024131.789102855,0.4243385420963383
1709121607.173668,1322,1709121607,173050650,,2,0,63.23972222853463,9.502347068802342,376.9858774538642,46.0,0.0,0.0,0.0,101.0,0.0,0.0,0.0,0.0,0,224068.02062093187,7024131.899595332,0.5165900611900724,0.09696311224251986,-4.184332141221603e-06,224068.53359589583,7024131.88323158,0.5132358970607234
1709121607.2837,1323,1709121607,283135906,,2,0,63.23972368041961,9.502352971946332,376.9820191208208,49.0,0.0,0.0,0.0,107.0,0.0,0.0,0.0,0.0,0,224068.3302266097,7024132.035506009,0.3096056778158527,0.13591067679226398,-2.487554525032465e-06,224068.63518643792,7024132.0257778615,0.3051149516091876
1709121607.3689916,1324,1709121607,367909893,,2,0,63.239724602334086,9.502364549078235,376.9949951849828,44.0,0.0,0.0,0.0,95.0,0.0,0.0,0.0,0.0,0,224068.9190323241,7024132.088099701,0.5888057144184131,0.05259369220584631,-4.78432895079095e-06,224069.50556345246,7024132.069389458,0.5868294792722829
1709121607.4672313,1325,1709121607,466577871,,2,0,63.239722046417285,9.50237543337802,376.9881163581669,44.0,0.0,0.0,0.0,98.0,0.0,0.0,0.0,0.0,0,224069.43991750275,7024131.757236372,0.5208851786446758,-0.33086332958191633,-4.330541884201011e-06,224069.9708169587,7024131.740300726,0.5311695100579266
1709121607.5665405,1326,1709121607,564768049,,2,0,63.23972379854738,9.502381819758662,376.9832990857302,36.0,0.0,0.0,0.0,81.0,0.0,0.0,0.0,0.0,0,224069.77659985377,7024131.924428438,0.3366823510150425,0.16719206608831882,-2.7000625948403467e-06,224070.10761193818,7024131.913869162,0.3311804618787808
1709121607.6728334,1327,1709121607,672123595,,2,0,63.23972717184934,9.502390729392626,376.99192486192527,39.0,0.0,0.0,0.0,86.0,0.0,0.0,0.0,0.0,0,224070.25517529075,7024132.260893718,0.47857543698046356,0.3364652805030346,-3.8123048682336957e-06,224070.72254186694,7024132.245984711,0.4676043146199903
1709121607.7713344,1328,1709121607,770207627,,2,0,63.239727462030366,9.502402029453055,376.98977220003366,32.0,0.0,0.0,0.0,71.0,0.0,0.0,0.0,0.0,0,224070.82406741683,7024132.244485456,0.5688921260880306,-0.01640826277434826,-4.63999546695959e-06,224071.39290411098,7024132.226339506,0.5691260493897137
1709121607.8718448,1329,1709121607,871266173,,2,0,63.23972654123922,9.502412669383643,376.98993314009454,32.0,0.0,0.0,0.0,70.0,0.0,0.0,0.0,0.0,0,224071.348324046,7024132.096361957,0.5242566291708499,-0.14812349900603294,-4.310513020300277e-06,224071.87676809056,7024132.079504496,0.5287128541911043
1709121607.967606,1330,1709121607,967052503,,2,0,63.23972930550896,9.502420442326136,376.99367523519845,38.0,0.0,0.0,0.0,83.0,0.0,0.0,0.0,0.0,0,224071.76413653512,7024132.370048637,0.41581248911097646,0.27368668001145124,-3.3171868381032255e-06,224072.17080450815,7024132.357075827,0.4068748383378366
1709121608.068725,1331,1709121608,67954950,,2,0,63.23972919247484,9.502429200949738,376.99365196607897,34.0,0.0,0.0,0.0,75.0,0.0,0.0,0.0,0.0,0,224072.20185498672,7024132.319779236,0.4377184516051784,-0.05026940070092678,-3.5799027671146177e-06,224072.6407304344,7024132.305778974,0.4390986972257055
1709121608.1658494,1332,1709121608,165242360,,2,0,63.23972866510808,9.502437805995395,376.9925493909596,40.0,0.0,0.0,0.0,87.0,0.0,0.0,0.0,0.0,0,224072.62792287115,7024132.224132435,0.42606788442935795,-0.0956468004733324,-3.4967615647474304e-06,224073.0566056835,7024132.210457295,0.42890087789506465
1709121608.2697642,1333,1709121608,268749971,,2,0,63.23972858571036,9.50244343553934,376.989019799604,41.0,0.0,0.0,0.0,89.0,0.0,0.0,0.0,0.0,0,224072.9091989349,7024132.191072635,0.28127606376074255,-0.033059800043702126,-2.3006275000625465e-06,224073.19124260175,7024132.182075324,0.2821871393683476
1709121608.371244,1334,1709121608,370712179,,2,0,63.23973151181278,9.50245547662978,376.9847145066953,39.0,0.0,0.0,0.0,84.0,0.0,0.0,0.0,0.0,0,224073.5403863132,7024132.464365504,0.6311873782833572,0.27329286839812994,-5.072313484788538e-06,224074.16222269772,7024132.444528623,0.622152707118949
1709121608.4642644,1335,1709121608,463751392,,2,0,63.239735106397696,9.502463874852031,376.98446521193415,36.0,0.0,0.0,0.0,77.0,0.0,0.0,0.0,0.0,0,224073.99545308077,7024132.827621075,0.4550667675794102,0.3632555715739727,-3.6137738561592414e-06,224074.4384809347,7024132.8134882385,0.44325321932354145
1709121608.572121,1336,1709121608,571330654,,2,0,63.23973714800784,9.502471279531466,376.9789989963987,38.0,0.0,0.0,0.0,82.0,0.0,0.0,0.0,0.0,0,224074.38591497557,7024133.022595092,0.3904618947999552,0.19497401639819145,-3.1310725319144694e-06,224074.76976644815,7024133.010349993,0.38404673602619693
1709121608.667025,1337,1709121608,666267849,,2,0,63.23973736344202,9.502478315884671,376.976175835604,43.0,0.0,0.0,0.0,93.0,0.0,0.0,0.0,0.0,0,224074.7404859608,7024133.016238921,0.35457098521874286,-0.006356170400977135,-2.89094379013477e-06,224075.0948990415,7024133.0049329065,0.3545933695684299
1709121608.7770083,1338,1709121608,776505524,,2,0,63.239737125235216,9.502484808214962,376.9799607908986,37.0,0.0,0.0,0.0,80.0,0.0,0.0,0.0,0.0,0,224075.0634701725,7024132.96181857,0.3229842116998043,-0.054420351050794125,-2.646047022381026e-06,224075.3878603177,7024132.951470291,0.3245551620237919
1709121608.871845,1339,1709121608,871178555,,2,0,63.23973924587022,9.502495417504118,376.9802579355898,47.0,0.0,0.0,0.0,101.0,0.0,0.0,0.0,0.0,0,224075.61523410864,7024133.151776559,0.5517639361496549,0.18995798844844103,-4.446777523980927e-06,224076.16038345135,7024133.134385868,0.5454266604976401
1709121608.968006,1340,1709121608,966474221,,2,0,63.239742020831656,9.502505464535847,376.97615808851424,44.0,0.0,0.0,0.0,96.0,0.0,0.0,0.0,0.0,0,224076.1450775935,7024133.416861016,0.5298434848664328,0.26508445758372545,-4.248624975389248e-06,224076.66593458783,7024133.400245231,0.5211219558469727
1709121609.077035,1341,1709121609,75946122,,2,0,63.23974260839575,9.502513421202128,376.9690922141046,37.0,0.0,0.0,0.0,79.0,0.0,0.0,0.0,0.0,0,224076.5493086548,7024133.447892079,0.4042310612858273,0.031031062826514244,-3.285889619064619e-06,224076.952139845,7024133.435041391,0.40303611250350113
1709121609.16812,1342,1709121609,166717265,,2,0,63.23974353889892,9.502521396484186,376.96633440999005,39.0,0.0,0.0,0.0,85.0,0.0,0.0,0.0,0.0,0,224076.9577470248,7024133.516948813,0.40843837001011707,0.0690567335113883,-3.3102888323810475e-06,224077.3635694202,7024133.504002679,0.4060288400903507
1709121609.270305,1343,1709121609,269550240,,2,0,63.23974547845701,9.502531203284292,376.9643240548035,44.0,0.0,0.0,0.0,94.0,0.0,0.0,0.0,0.0,0,224077.46757780807,7024133.690241697,0.509830783266807,0.17329288460314274,-4.109408308750062e-06,224077.97136766568,7024133.674170274,0.5040461400195122
1709121609.3859255,1344,1709121609,385365191,,2,0,63.23974441380219,9.502542460172233,376.9557822578192,47.0,0.0,0.0,0.0,101.0,0.0,0.0,0.0,0.0,0,224078.02136954476,7024133.523477628,0.5537917366891634,-0.16676406934857368,-4.556031285574136e-06,224078.57991282802,7024133.505659471,0.5588274205691609
1709121609.4724138,1345,1709121609,471756069,,2,0,63.23974602570202,9.502550478037676,376.9588907999407,43.0,0.0,0.0,0.0,93.0,0.0,0.0,0.0,0.0,0,224078.43844779133,7024133.668064786,0.41707824656623416,0.14458715822547674,-3.361057991924099e-06,224078.85049419847,7024133.654920015,0.41225602077016615
1709121609.572206,1346,1709121609,571170107,,2,0,63.23974948231684,9.502559551143614,376.95633517361256,48.0,0.0,0.0,0.0,102.0,0.0,0.0,0.0,0.0,0,224078.926007287,7024134.013084859,0.48755949566839263,0.34502007253468037,-3.883284762196126e-06,224079.40207570675,7024133.997897678,0.4763106032215472
1709121609.669827,1347,1709121609,668801204,,2,0,63.23974649521511,9.502573229985384,376.964781049964,48.0,0.0,0.0,0.0,104.0,0.0,0.0,0.0,0.0,0,224079.5827792053,7024133.622280577,0.6567719182930887,-0.39080428145825863,-5.453425757195873e-06,224080.25133793015,7024133.600952661,0.6688988328712681
1709121609.7701044,1348,1709121609,768435757,,2,0,63.23974674853065,9.502584504955625,376.9589235564711,39.0,0.0,0.0,0.0,84.0,0.0,0.0,0.0,0.0,0,224080.15006195175,7024133.601885662,0.567282746458659,-0.020394914783537388,-4.627916354138506e-06,224080.7174179263,7024133.583786199,0.5676446004642508
1709121609.8775747,1349,1709121609,876707639,,2,0,63.2397491802995,9.502594760065517,376.9624888296373,33.0,0.0,0.0,0.0,72.0,0.0,0.0,0.0,0.0,0,224080.68705234543,7024133.827941082,0.5369903936807532,0.2260554200038314,-4.317006954579483e-06,224081.21629261112,7024133.811057522,0.5295095026945158
1709121609.9659166,1350,1709121609,965188471,,2,0,63.23975109326782,9.502601922243914,376.94464360987615,41.0,0.0,0.0,0.0,88.0,0.0,0.0,0.0,0.0,0,224081.0641362362,7024134.0096658645,0.3770838907803409,0.18172478210180998,-3.0255013427904487e-06,224081.43504534138,7024133.997833283,0.3710977961291607
1709121610.0655766,1351,1709121610,64976052,,2,0,63.23975305299425,9.50260978175243,376.9444670732325,38.0,0.0,0.0,0.0,81.0,0.0,0.0,0.0,0.0,0,224081.4766020461,7024134.193584031,0.4124658099026419,0.18391816690564156,-3.3132474470676243e-06,224081.88278718316,7024134.180626066,0.4063917745448243
1709121610.1601667,1352,1709121610,159127731,,2,0,63.23975591754799,9.502620500880369,376.9430570565388,37.0,0.0,0.0,0.0,79.0,0.0,0.0,0.0,0.0,0,224082.04097158008,7024134.4657309605,0.5643695339676924,0.27214692905545235,-4.52812861340135e-06,224082.59609419567,7024134.448021611,0.5554050228408982
1709121610.268183,1353,1709121610,267407356,,2,0,63.239755559366046,9.502629788662142,376.9333108788455,42.0,0.0,0.0,0.0,91.0,0.0,0.0,0.0,0.0,0,224082.50285915565,7024134.385945125,0.4618875755695626,-0.07978583592921495,-3.7845218230359023e-06,224082.9668198587,7024134.371143959,0.46419673465805134
1709121610.366465,1354,1709121610,365904675,,2,0,63.23975669647195,9.502637401216786,376.9173348575,44.0,0.0,0.0,0.0,97.0,0.0,0.0,0.0,0.0,0,224082.8950977449,7024134.479520962,0.3922385892656166,0.09357583709061146,-3.171906740817576e-06,224083.28395534275,7024134.467115695,0.38905542284170813
1709121610.4665663,1355,1709121610,465309753,,2,0,63.239753723997445,9.502647064324156,376.9179392187398,37.0,0.0,0.0,0.0,80.0,0.0,0.0,0.0,0.0,0,224083.35082567792,7024134.107631529,0.4557279330038,-0.37188943289220333,-3.8102637631709513e-06,224083.81794219633,7024134.092729631,0.46735415728682234
1709121610.5719447,1356,1709121610,571032249,,2,0,63.23975416984972,9.502652724489316,376.9035412224378,43.0,0.0,0.0,0.0,94.0,0.0,0.0,0.0,0.0,0,224083.63865111492,7024134.132804134,0.28782543700071983,0.02517260517925024,-2.338857882477896e-06,224083.92538168308,7024134.123656873,0.28687643874089486
1709121610.668619,1357,1709121610,667767618,,2,0,63.2397562116291,9.502662327889198,376.8891186581301,36.0,0.0,0.0,0.0,80.0,0.0,0.0,0.0,0.0,0,224084.13926728675,7024134.318332103,0.5006161718338262,0.1855279691517353,-4.031138672644374e-06,224084.63346177986,7024134.302566314,0.49444590919246356
1709121610.769322,1358,1709121610,767886180,,2,0,63.2397566045906,9.502674546228342,376.8789595270025,37.0,0.0,0.0,0.0,82.0,0.0,0.0,0.0,0.0,0,224084.75514503883,7024134.309393379,0.6158777520759031,-0.008938724175095558,-5.020923538268107e-06,224085.37068149867,7024134.28975649,0.6158496089136427
1709121610.8696983,1359,1709121610,868338412,,2,0,63.23975449966195,9.502682346617178,376.8778507910069,41.0,0.0,0.0,0.0,90.0,0.0,0.0,0.0,0.0,0,224085.1258368679,7024134.041921226,0.3706918290699832,-0.26747215259820223,-3.0901868797172938e-06,224085.50467607475,7024134.029835443,0.3790319390323957
1709121610.971164,1360,1709121610,970518384,,2,0,63.23975576921915,9.502690378368348,376.8629748720062,43.0,0.0,0.0,0.0,94.0,0.0,0.0,0.0,0.0,0,224085.5403414038,7024134.148410018,0.4145045359036885,0.10648879129439592,-3.3499880487397604e-06,224085.9510307298,7024134.135308124,0.4108982624758153
1709121611.075147,1361,1709121611,73944745,,2,0,63.23975365442023,9.502698742336074,376.8521717573881,44.0,0.0,0.0,0.0,98.0,0.0,0.0,0.0,0.0,0,224085.9391737543,7024133.877414895,0.3988323505036533,-0.2709951223805547,-3.3204115368334897e-06,224086.34623717572,7024133.864428652,0.40727051397730957
1709121611.1675682,1362,1709121611,166256297,,2,0,63.23975467948539,9.5027085038119,376.8505717349253,40.0,0.0,0.0,0.0,89.0,0.0,0.0,0.0,0.0,0,224086.43800105303,7024133.949290178,0.49882729872479104,0.07187528256326914,-4.046106710120512e-06,224086.93403052367,7024133.933465687,0.4962818254415359
1709121611.2675958,1363,1709121611,267003478,,2,0,63.23975532725105,9.502719483340572,376.8451197606827,39.0,0.0,0.0,0.0,86.0,0.0,0.0,0.0,0.0,0,224086.9942487834,7024133.973997847,0.5562477303610649,0.024707669392228127,-4.5262700325565675e-06,224087.54914352833,7024133.956295375,0.5551770487814343
